[{"name":"Davy's Shake Shack","Address":"Corner Street 178 / Street 13, Phnom Penh, Cambodia","Location":"Asia\n  >  Cambodia\n  >  Phnom Penh"},{"name":"Davy's Shake Shack","Address":"Corner Street 178 / Street 13, Phnom Penh, Cambodia","Location":"Asia\n  >  Cambodia\n  >  Phnom Penh"},{"name":"Swensen's","Address":"(3) 132 Samdech Sothearos Blvd | Ground Floor, Aeon Mall, Phnom Penh 12101, Cambodia","Location":"Asia\n  >  Cambodia\n  >  Phnom Penh","Phone Number":"023 989 334"},{"name":"La Pops","Address":"302 st. | corner of st. 302 and 51st, behind Krispy Kreme, Phnom Penh, Cambodia","Location":"Asia\n  >  Cambodia\n  >  Phnom Penh","Phone Number":"069302308"},{"name":"Asian Spice Cafe Pub","Address":"#79 Street 111, Phnom Penh, Cambodia","Location":"Asia\n  >  Cambodia\n  >  Phnom Penh","Phone Number":"012237113"},{"name":"KOI Cafe Norodom","Address":"41 158 Preah Norodom Blvd (Street, Phnom Penh 12101, Cambodia","Location":"Asia\n  >  Cambodia\n  >  Phnom Penh","Phone Number":"+(855)81 880 777"},{"name":"Posh Nosh Bakery Deli","Address":"20A, Street 123 | Tuol Tumpung, Phnom Penh, Cambodia","Location":"Asia\n  >  Cambodia\n  >  Phnom Penh"},{"name":"Sevensea Restaurant","Address":"2 Next Sothearos Blvd | Sangkat Tonle Bassac, Khan Chamkarmon, Phnom Penh, Cambodia","Location":"Asia\n  >  Cambodia\n  >  Phnom Penh","Phone Number":"16318777"},{"name":"Shin-Ya Japanese Dining & Bar","Address":"#38A, Street 288 | Boeng keng kong, Phnom Penh, Cambodia","Location":"Asia\n  >  Cambodia\n  >  Phnom Penh","Phone Number":"77 720 026"},{"name":"Red Wine House","Address":"#12, St.315, Sangkat Boeung kok I, Khan Toulkork, Phnom Penh, Phnom Penh, Cambodia","Location":"Asia\n  >  Cambodia\n  >  Phnom Penh","Phone Number":"077265266"},{"name":"Chang Kim Restaurant","Address":"#61, Street 592, Phnom Penh, Cambodia","Location":"Asia\n  >  Cambodia\n  >  Phnom Penh"},{"name":"Margarita Pizza","Address":"No 7. Street 136 | In front of Neil's 24 Hour Mini Mart, Phnom Penh, Cambodia","Location":"Asia\n  >  Cambodia\n  >  Phnom Penh","Phone Number":"12224704"},{"name":"Kiriya Cafe (Kiriya 278)","Address":"#3Eo, Street 278, Phnom Penh, Cambodia","Location":"Asia\n  >  Cambodia\n  >  Phnom Penh","Phone Number":"015990615"},{"name":"Okia","Address":"110-112 Rue 148, Phnom Penh, Cambodia","Location":"Asia\n  >  Cambodia\n  >  Phnom Penh","Phone Number":"12491343"},{"name":"Mer Khmek","Address":"Phnom Penh 12207, Cambodia","Location":"Asia\n  >  Cambodia\n  >  Phnom Penh","Phone Number":"011522052"},{"name":"Iguazu Argentinian Asado","Address":"3 Mao Tse Tung, Phnom Penh 12000, Cambodia","Location":"Asia\n  >  Cambodia\n  >  Phnom Penh","Phone Number":"023987025"},{"name":"Hang Neak","Address":"NH6, Phnom Penh, Cambodia","Location":"Asia\n  >  Cambodia\n  >  Phnom Penh","Phone Number":"369661"},{"name":"Brown Roastery","Address":"#23 St 57, Corner St 294, Phnom Penh, Cambodia","Location":"Asia\n  >  Cambodia\n  >  Phnom Penh","Phone Number":"98 888 331"},{"name":"Cheer City 555","Address":"Phnom Penh, Cambodia","Location":"Asia\n  >  Cambodia\n  >  Phnom Penh","Phone Number":"12934439"},{"name":"Sokafe","Address":"No. 2, Street 294 | BKK1, Phnom Penh, Cambodia","Location":"Asia\n  >  Cambodia\n  >  Phnom Penh","Phone Number":"086664123"},{"name":"Star Restaurant","Address":"#1-2, Steung Mean Chey | Choam Chao, Phnom Penh, Cambodia","Location":"Asia\n  >  Cambodia\n  >  Phnom Penh","Phone Number":"77 348 489"},{"name":"Daebok Korean Restaurant","Address":"No. 46, Street 15 | Sankat Phsa Kandal 1, Phnom Penh, Cambodia","Location":"Asia\n  >  Cambodia\n  >  Phnom Penh","Phone Number":"89883610"},{"name":"De Sweet Khmer Dessert Restaurant","Address":"Beong Keng Kong, Commune, Chamkarmorn District, Phnom Penh, Cambodia","Location":"Asia\n  >  Cambodia\n  >  Phnom Penh"},{"name":"Sugar & Spice Garden Cafe","Address":"#130A, Street 430, Phnom Penh, Cambodia","Location":"Asia\n  >  Cambodia\n  >  Phnom Penh","Phone Number":"855 77 851 800"},{"name":"River Home Restaurant","Address":"463 Sisovath Rd | River Home Boutique Hotel, Phnom Penh, Cambodia","Location":"Asia\n  >  Cambodia\n  >  Phnom Penh","Phone Number":"+855 23 221 993"},{"name":"Prom Bayon","Address":"#105 St, 154 Corner, Phnom Penh, Cambodia","Location":"Asia\n  >  Cambodia\n  >  Phnom Penh","Phone Number":"12621171"},{"name":"Spring Vale Japanese food & Cafe","Address":"73A, Street 450, | Toul Tom Pong I, Phnom Penh 12310, Cambodia","Location":"Asia\n  >  Cambodia\n  >  Phnom Penh","Phone Number":"+855 89 343 597"},{"name":"Seven Diamonds Noodle House","Address":"SM-C110, Camko Street, Camko city R1, Sangkat Toul Sangke, Khan Russey Keo, Phnom Penh 00000, Cambodia","Location":"Asia\n  >  Cambodia\n  >  Phnom Penh","Phone Number":"017441777"},{"name":"JaiKon Cafe","Address":"| In Front of Royal Palace, Khan Daun Penh, Phnom Penh 12206, Cambodia","Location":"Asia\n  >  Cambodia\n  >  Phnom Penh","Phone Number":"81666009"},{"name":"The Villa Paradiso Hotel - Restaurant","Address":"Street 222, Phnom Penh, Cambodia","Location":"Asia\n  >  Cambodia\n  >  Phnom Penh","Phone Number":"023213720"},{"name":"Banhsong Deli","Address":"#49 E0, Street 130, Sangkat Phsar Kandal I, Daun Penh, Phnom Penh, Cambodia","Location":"Asia\n  >  Cambodia\n  >  Phnom Penh","Phone Number":"012200972"},{"name":"River House Lounge","Address":"8E, E1 Street 110 | Khan Doun, Phnom Penh, Cambodia","Location":"Asia\n  >  Cambodia\n  >  Phnom Penh","Phone Number":"81888010"},{"name":"Premiere Restaurant","Address":"#103-105EO, Str.566 | Sangkat Boeng Kok II, Khan Toul Kok, Phnom Penh, Cambodia","Location":"Asia\n  >  Cambodia\n  >  Phnom Penh","Phone Number":"+855 23 671 7879"},{"name":"Biz Point","Address":"370th Street | One Door Down From Intersection of Pastuer/370th, Phnom Penh, Cambodia","Location":"Asia\n  >  Cambodia\n  >  Phnom Penh","Phone Number":"017989895"},{"name":"Fox Wine Bistro","Address":"#104, Sothearos Blvd | Sangkat Chaktomok, Phnom Penh, Cambodia","Location":"Asia\n  >  Cambodia\n  >  Phnom Penh","Phone Number":"90625656"},{"name":"Cowboy by Motor Cafe","Address":"St. 51 and St. 252, Phnom Penh, Cambodia","Location":"Asia\n  >  Cambodia\n  >  Phnom Penh","Phone Number":"11566969"},{"name":"Pka Chan Restaurant & Bar","Address":"#277H, Sisowath Quay | Location Between St. 148 & 154, Riverside, Phnom Penh, Cambodia","Location":"Asia\n  >  Cambodia\n  >  Phnom Penh","Phone Number":"012962256"},{"name":"Golden Cruise","Address":"Siem Reap Ferry Dock, Phnom Penh 855, Cambodia","Location":"Asia\n  >  Cambodia\n  >  Phnom Penh","Phone Number":"(+855) 12 811 565"},{"name":"Krispy Kreme","Address":"Pasteur St. 51, Phnom Penh, Cambodia","Location":"Asia\n  >  Cambodia\n  >  Phnom Penh","Phone Number":"023880880"},{"name":"The Watering hole","Address":"#M39 Street 308, Phnom Penh, Cambodia","Location":"Asia\n  >  Cambodia\n  >  Phnom Penh","Phone Number":"070232093"},{"name":"Sovanphum Restaurant","Address":"178 5e0, Street | Sangkat Chey Chum Neas, Khan Daun Penh, Phnom Penh 12000, Cambodia","Location":"Asia\n  >  Cambodia\n  >  Phnom Penh","Phone Number":"016 737 021"},{"name":"Maison Kayser Vatanac","Address":"Preah Ang Non St | Vattanac Bank Tower, Next to Canadia Bank Tower, Phnom Penh 12000, Cambodia","Location":"Asia\n  >  Cambodia\n  >  Phnom Penh"},{"name":"Artease Cafe","Address":"#23, Street 310, Phnom Penh, Cambodia","Location":"Asia\n  >  Cambodia\n  >  Phnom Penh","Phone Number":"011-977-577"},{"name":"Cafe Amazon","Address":"# 183 a, Preah Norodom Blvd | Corner Street 352, Sangkat Boeng Kengkang 1, Phnom Penh, Cambodia","Location":"Asia\n  >  Cambodia\n  >  Phnom Penh"},{"name":"Thalias","Address":"N0 163, Street 51, Sangkat Chaktomuk, Khan Daun Penh, Phnom Penh, Cambodia","Location":"Asia\n  >  Cambodia\n  >  Phnom Penh","Phone Number":"(0) 12 342 555"},{"name":"Le Diplomate","Address":"corner of Street 57 and Street 294, Phnom Penh, Cambodia","Location":"Asia\n  >  Cambodia\n  >  Phnom Penh","Phone Number":"012399228"},{"name":"Veayo Tonle Cafe","Address":"Corner of St 155 and St 468 | Toul Tom Poung, Phnom Penh, Cambodia","Location":"Asia\n  >  Cambodia\n  >  Phnom Penh","Phone Number":"+855 98 361 793"},{"name":"Fruit Cafe Amore","Address":"No.53_450St, Phnom Penh, Cambodia","Location":"Asia\n  >  Cambodia\n  >  Phnom Penh","Phone Number":"023-632-5161"},{"name":"Cafe 151","Address":"151 Sisowath Quay, Phnom Penh, Cambodia","Location":"Asia\n  >  Cambodia\n  >  Phnom Penh"},{"name":"Champs-Elysees Restaurant","Address":"Building 185, Street Trasak Paem (63) | Sangkat Beoung Keng Kong 1, Khan ChomKamorn, Phnom Penh, Cambodia","Location":"Asia\n  >  Cambodia\n  >  Phnom Penh","Phone Number":"(+855)​ 23 99 34 56"},{"name":"Le TJ Cafe","Address":"Street 320, Phnom Penh, Cambodia","Location":"Asia\n  >  Cambodia\n  >  Phnom Penh","Phone Number":"15537135"},{"name":"Love Power Cafe","Address":"Parkway Square, Phnom Penh, Cambodia","Location":"Asia\n  >  Cambodia\n  >  Phnom Penh"},{"name":"Jaru","Address":"St 282, Phnom Penh, Cambodia","Location":"Asia\n  >  Cambodia\n  >  Phnom Penh","Phone Number":"12450902"},{"name":"Mekong View Tower Restaurant and Skybar","Address":"Wat Chas Road, Chroy Changva, Russei Keo, Phnom Penh, Cambodia","Location":"Asia\n  >  Cambodia\n  >  Phnom Penh","Phone Number":"23 432 201"},{"name":"De Yue Lou Chinese Restaurant","Address":"Monivong Blvd, Phnom Penh, Cambodia","Location":"Asia\n  >  Cambodia\n  >  Phnom Penh"},{"name":"Capitol Restaurant","Address":"182 No. 14 Street | Corner of Sok Hok, Phnom Penh 13253, Cambodia","Location":"Asia\n  >  Cambodia\n  >  Phnom Penh","Phone Number":"023217072"},{"name":"Qingye Restaurant","Address":"No. 52, Charle De Gaulle St (217), Phnom Penh, Cambodia","Location":"Asia\n  >  Cambodia\n  >  Phnom Penh"},{"name":"Pho24","Address":"Samdach Sothearos Blvd, Phnom Penh, Cambodia","Location":"Asia\n  >  Cambodia\n  >  Phnom Penh","Phone Number":"+855 10 570 000"},{"name":"Canton Restaurant","Address":"184 No. 103A, Keo Chea (St. | Corner of Preah Trasak Paem (St. 63), Phnom Penh 12000, Cambodia","Location":"Asia\n  >  Cambodia\n  >  Phnom Penh","Phone Number":"023 228 828"},{"name":"Highway Sandwich Shop","Address":"#41, Street 450, Phnom Penh, Cambodia","Location":"Asia\n  >  Cambodia\n  >  Phnom Penh","Phone Number":"17732552"},{"name":"Khmer Thai restaurant XO","Address":"163 No470 FE street | 50 m du Bvd Mao Tsé toung, Phnom Penh 12000, Cambodia","Location":"Asia\n  >  Cambodia\n  >  Phnom Penh","Phone Number":"011910912"},{"name":"Gateway Cafe","Address":"68B Street 1011, Phnom Penh, Cambodia","Location":"Asia\n  >  Cambodia\n  >  Phnom Penh"},{"name":"北京菜館","Address":"No.93,St.136 Phnom Penh, Phnom Penh, Cambodia","Location":"Asia\n  >  Cambodia\n  >  Phnom Penh"},{"name":"Sun Tokyo Sushi","Address":"37 Street 608, Phnom Penh, Cambodia","Location":"Asia\n  >  Cambodia\n  >  Phnom Penh","Phone Number":"85581573492"},{"name":"Reatrey Lum Hei - Happy Night","Address":"Street 65 House 18ABC | Sang Jar, Sras Chork, Khan Penh, Phnom Penh, Cambodia","Location":"Asia\n  >  Cambodia\n  >  Phnom Penh"},{"name":"Banh Mi Sonoma","Address":"11 street 222, Phnom Penh, Cambodia","Location":"Asia\n  >  Cambodia\n  >  Phnom Penh","Phone Number":"+855 77 723 911"},{"name":"Sokhum Restaurant","Address":"#1EEO St 258 Sangkat Chaktomuk, Phnom Penh, Cambodia","Location":"Asia\n  >  Cambodia\n  >  Phnom Penh"},{"name":"Silver Fresh Food","Address":"#88, St. 135, Phnom Penh, Cambodia","Location":"Asia\n  >  Cambodia\n  >  Phnom Penh","Phone Number":"69-878237"},{"name":"Grab&Go","Address":"306 23 Street 57 Corner Street, Phnom Penh 12000, Cambodia","Location":"Asia\n  >  Cambodia\n  >  Phnom Penh","Phone Number":"+(855)86300066"},{"name":"8 Boat Noodle","Address":"Koh Pich Rd, Phnom Penh, Cambodia","Location":"Asia\n  >  Cambodia\n  >  Phnom Penh","Phone Number":"+855 17 888 003"},{"name":"Udon Bar Moriiya","Address":"282 #13, Street | Boeung Keng Kang 1, Chamkar Mon, Phnom Penh 12000, Cambodia","Location":"Asia\n  >  Cambodia\n  >  Phnom Penh","Phone Number":"010 233 243"},{"name":"The Pizza Company","Address":"Corner of St. 315 & St. 516 | Khan Toul Kork, Phnom Penh, Cambodia","Location":"Asia\n  >  Cambodia\n  >  Phnom Penh","Phone Number":"23993549"},{"name":"Waffle Cafe ORANGE","Address":"#61,St.63,Sangkat Tonle Baassc,Khan Chamkarmon, Phnom Penh #61,St.63, Cambodia","Location":"Asia\n  >  Cambodia\n  >  Phnom Penh","Phone Number":"+(855)023216363"},{"name":"Lucky Burger Tuol Kork Branch","Address":"TK Avenue, #80 | Street 516 Corner Street 313, Sang Kat Beung Kak I, Khan Toul Kork, Phnom Penh, Cambodia","Location":"Asia\n  >  Cambodia\n  >  Phnom Penh","Phone Number":"081222074"},{"name":"Sorya Restaurant","Address":"# 3 5, Street 142, Sangkat Phsar Thmey Ii, Khan Daun, Phnom Penh 12000, Cambodia","Location":"Asia\n  >  Cambodia\n  >  Phnom Penh"},{"name":"Cafe Ratanakiri Restaurant","Address":"154 No. 84GHI, Preah Trasak Paem (St. 63), Corner of Dekcho Damdin (St., Phnom Penh 12000, Cambodia","Location":"Asia\n  >  Cambodia\n  >  Phnom Penh","Phone Number":"023 6338 828"},{"name":"Rambutan","Address":"29 71, Phnom Penh, Phnom Penh, Cambodia","Location":"Asia\n  >  Cambodia\n  >  Phnom Penh","Phone Number":"+855 17 992 240"},{"name":"Cafe Republic","Address":"19-20 Russian Confederation Blvd | Sangkat Phnom Penh Thmey, Khan Sen Sok, Phnom Penh 855, Cambodia","Location":"Asia\n  >  Cambodia\n  >  Phnom Penh","Phone Number":"070 333 234"},{"name":"The Writers Bar","Address":"92 Rukhak Vithei Daun Penh | Raffles Hotel Le Royal, Phnom Penh, Cambodia","Location":"Asia\n  >  Cambodia\n  >  Phnom Penh","Phone Number":"+855 23 981 888"},{"name":"Le Cyclo Restaurant","Address":"No 50 Eo , Street 172 Corner Street 23, Phnom Penh, Cambodia","Location":"Asia\n  >  Cambodia\n  >  Phnom Penh","Phone Number":"023 993 128"},{"name":"Caffe Bene","Address":"St. 57, Bunkengkong, Phnom Penh, Cambodia","Location":"Asia\n  >  Cambodia\n  >  Phnom Penh","Phone Number":"023-977-888"},{"name":"Cafe Red","Address":"277 Sisowath Quay, Phnom Penh, Cambodia","Location":"Asia\n  >  Cambodia\n  >  Phnom Penh","Phone Number":"023213361"},{"name":"Le Bar","Address":"26 Old August Site | Sofitel Phnom Penh Phokeethra, Phnom Penh, Cambodia","Location":"Asia\n  >  Cambodia\n  >  Phnom Penh","Phone Number":"(+855)23-999200"},{"name":"Hometown Bah Kuh Teh","Address":"154 No. B8-B10, Dekcho Damdin St., Phnom Penh 12000, Cambodia","Location":"Asia\n  >  Cambodia\n  >  Phnom Penh","Phone Number":"012 611 575"},{"name":"TabU Restaurant & Lounge","Address":"61 Sothearos Street, Sangkat Tonle Bassac | khan Chamkarmon, Phnom Penh 12000, Cambodia","Location":"Asia\n  >  Cambodia\n  >  Phnom Penh","Phone Number":"023996777"},{"name":"La Volpaia","Address":"20-22 Street 13 | Sangkat Wat Phnom, Khan Daun Penh, Phnom Penh, Cambodia","Location":"Asia\n  >  Cambodia\n  >  Phnom Penh","Phone Number":"023 992 739"},{"name":"Bong B'own Restaurant, Phnom Penh","Address":"No. 72, St 135, Toul Tom Pong 1, Chamkarmon, Phnom Penh, Cambodia","Location":"Asia\n  >  Cambodia\n  >  Phnom Penh","Phone Number":"12506789"},{"name":"The Terrace CAfe","Address":"289 No. 36Eo, Penn Nouth (St., Phnom Penh 12101, Cambodia","Location":"Asia\n  >  Cambodia\n  >  Phnom Penh","Phone Number":"023 6508 431"},{"name":"Ko Dot 310","Address":"Street 310, Sangkat Boeung Keng Kong II, Khan Chamkamon | #445D, Phnom Penh, Cambodia","Location":"Asia\n  >  Cambodia\n  >  Phnom Penh","Phone Number":"855 31 931 0310"},{"name":"2 Colours Bar","Address":"225 Street 13 | across from Aroma Restaurant, Phnom Penh, Cambodia","Location":"Asia\n  >  Cambodia\n  >  Phnom Penh","Phone Number":"17374724"},{"name":"Kuay Chap","Address":"_19E0, E1, St.360 Sangkat Boeung Keng Kang 3 Khan Charmkamon, Phnom Penh 855, Cambodia","Location":"Asia\n  >  Cambodia\n  >  Phnom Penh","Phone Number":"016 348 728"},{"name":"Tai Tai Restaurant","Address":"No.282E1 Preah Monivong Blvd, Phnom Penh 12000, Cambodia","Location":"Asia\n  >  Cambodia\n  >  Phnom Penh","Phone Number":"012 330 882"},{"name":"Yi Xian Restaurant Snack World","Address":"No. 697A Preah Monivong Blvd, Phnom Penh 12000, Cambodia","Location":"Asia\n  >  Cambodia\n  >  Phnom Penh","Phone Number":"023 428 318"},{"name":"VIP Restaurant","Address":"Street 51 Sangkat Boeung Keng Kang I, Khan Chamkarmorn | №.14 Eo, Phnom Penh 12000, Cambodia","Location":"Asia\n  >  Cambodia\n  >  Phnom Penh","Phone Number":"023 726 828"},{"name":"Monsoon","Address":"17 Ph 104, Phnom Penh, Cambodia","Location":"Asia\n  >  Cambodia\n  >  Phnom Penh"},{"name":"Fatboy's The Burger Bar","Address":"57 No.16 Street | Sangkat Boeng Keng Kong 1, Phnom Penh 12000, Cambodia","Location":"Asia\n  >  Cambodia\n  >  Phnom Penh"},{"name":"Puzzles Gastropub","Address":"Sangkat Tonle Bassak | Behind Russian Embassy, Phnom Penh, Cambodia","Location":"Asia\n  >  Cambodia\n  >  Phnom Penh","Phone Number":"+85517778829"},{"name":"Royal Guesthouse & Cafe Bar","Address":"#Eo,Street154 | Phsar Kandal11,Khan Daun Penh, Phnom Penh, Cambodia","Location":"Asia\n  >  Cambodia\n  >  Phnom Penh","Phone Number":"23218026"},{"name":"Benim Kebab","Address":"310 200a Street, Phnom Penh 12000, Cambodia","Location":"Asia\n  >  Cambodia\n  >  Phnom Penh","Phone Number":"855 77 911 916"},{"name":"The W Garden Cafe & Bar","Address":"Street 21 | The Willow Boutique Hotel, Phnom Penh 855, Cambodia","Location":"Asia\n  >  Cambodia\n  >  Phnom Penh","Phone Number":"+855 (0) 23996256"},{"name":"KOI Cafe Aeon Mall","Address":"132 Samdach Sothearos Blvd | Sangkat Tonle Basak, Khan Chamkarmon, Phnom Penh 12000, Cambodia","Location":"Asia\n  >  Cambodia\n  >  Phnom Penh","Phone Number":"98500313"},{"name":"Sura","Address":"30 a, Street 29 Sangkat","Location":"Asia\n  >  Cambodia\n  >  Phnom Penh","Phone Number":"077 848 707"},{"name":"KFC","Address":"#69Eo Street Preach Sisovath Quay, Phnom Penh, Cambodia","Location":"Asia\n  >  Cambodia\n  >  Phnom Penh","Phone Number":"23992002"},{"name":"Kentucky Fried Chicken","Address":"Street 51 | Corner of St.310, Phnom Penh, Cambodia","Location":"Asia\n  >  Cambodia\n  >  Phnom Penh"},{"name":"Les Jardins d'Orient","Address":"35 A de la rue 75,, Phnom Penh, Cambodia","Location":"Asia\n  >  Cambodia\n  >  Phnom Penh","Phone Number":"00 855 12 413 825"},{"name":"Le Saint Malo","Address":"No. 19 Street 5 | Sangkat Daun Penh, Phnom Penh 12000, Cambodia","Location":"Asia\n  >  Cambodia\n  >  Phnom Penh","Phone Number":"+855 (0)66 637 636"},{"name":"Diamond Palace II Restaurant","Address":"# 29EO Street 178, Next to Royal Palace | National Museum, River Front, Phnom Penh 12000, Cambodia","Location":"Asia\n  >  Cambodia\n  >  Phnom Penh","Phone Number":"855 23 224 169"},{"name":"Sarpino's Pizzeria Toul Kork Branch","Address":"No 150F, St 289 Corner, St 516 | Toul Kork, Phnom Penh, Cambodia","Location":"Asia\n  >  Cambodia\n  >  Phnom Penh","Phone Number":"23211661"},{"name":"Midnite Train","Address":"Ph 51, Phnom Penh, Cambodia","Location":"Asia\n  >  Cambodia\n  >  Phnom Penh"},{"name":"PC-Hotel","Address":"60 Rue 51 (Pasteur), Phnom Penh 12000, Cambodia","Location":"Asia\n  >  Cambodia\n  >  Phnom Penh","Phone Number":"+85523222120"},{"name":"Higashiyama Soup and Buffet","Address":"66 Sothearos, Tonle Bassac, Phnom Penh, Cambodia","Location":"Asia\n  >  Cambodia\n  >  Phnom Penh","Phone Number":"089715050"},{"name":"KyoChonKorean Fried Chicken","Address":"Street 51, Phnom Penh, Cambodia","Location":"Asia\n  >  Cambodia\n  >  Phnom Penh"},{"name":"The Romney Bay House Hotel","Address":"Coast Road | Littlestone, Phnom Penh TN28 8QY, Cambodia","Location":"Asia\n  >  Cambodia\n  >  Phnom Penh","Phone Number":"01797 364 747"},{"name":"Big Mama Bar","Address":"104st 11 E0, Phnom Penh, Cambodia","Location":"Asia\n  >  Cambodia\n  >  Phnom Penh","Phone Number":"77757797"},{"name":"Novnis","Address":"#29, Street 334, Phnom Penh, Cambodia","Location":"Asia\n  >  Cambodia\n  >  Phnom Penh"},{"name":"De Bao","Address":"St 288 #49B Beung Keng Kang 1, Phnom Penh, Cambodia","Location":"Asia\n  >  Cambodia\n  >  Phnom Penh","Phone Number":"78700816"},{"name":"Cafe So Good Restaurant","Address":"Infront of Choeung Ek Killing Field, Phnom Penh, Cambodia","Location":"Asia\n  >  Cambodia\n  >  Phnom Penh","Phone Number":"979104734"},{"name":"The Wine Collection","Address":"22-24 Street 586 Khan Toul Kork, Phnom Penh City, Phnom Penh, Cambodia","Location":"Asia\n  >  Cambodia\n  >  Phnom Penh","Phone Number":"855 23 881 610"},{"name":"POPP Bar Gay","Address":"Phnom Penh, Cambodia","Location":"Asia\n  >  Cambodia\n  >  Phnom Penh","Phone Number":"089433363"},{"name":"Sushi Kaihomaru","Address":"AEON Mall | 2nd Floor, Phnom Penh, Cambodia","Location":"Asia\n  >  Cambodia\n  >  Phnom Penh","Phone Number":"023901373"},{"name":"Pasteur BBQ Restaurant","Address":"No. 17 Pasteur, Phnom Penh 12000, Cambodia","Location":"Asia\n  >  Cambodia\n  >  Phnom Penh","Phone Number":"023986280"},{"name":"Istanbul 7/24 Turkish Kebab","Address":"51.Street | No.158-159, Sorya Mall, Phnom Penh, Cambodia","Location":"Asia\n  >  Cambodia\n  >  Phnom Penh","Phone Number":"+855 15 388 990"},{"name":"Schnitzelwirt Beergarden","Address":"Sisowath Quay, between Street 84 and 90,, Phnom Penh, Cambodia","Location":"Asia\n  >  Cambodia\n  >  Phnom Penh","Phone Number":"097 655 4258"},{"name":"Me Mates Place","Address":"Phnom Penh 12000, Cambodia","Location":"Asia\n  >  Cambodia\n  >  Phnom Penh","Phone Number":"85512457915"},{"name":"New Season Indian Restaurant & Hotel","Address":"#171, Phrash Sisowath Quay, Phnom Pen 12204 | River Side, tween Burger kin and Night market, Phnom Penh 12204, Cambodia","Location":"Asia\n  >  Cambodia\n  >  Phnom Penh","Phone Number":"0968617976"},{"name":"Stella Japanese Club & Bar","Address":"_o. 24, St. 282, Boeung Keng Kang 1 Chamkarmon,, Phnom Penh, Cambodia","Location":"Asia\n  >  Cambodia\n  >  Phnom Penh","Phone Number":"092-597-612"},{"name":"Bingo Gourmand","Address":"No 184 Street 163 | Sangkat Psar Derm Skov, Phnom Penh, Cambodia","Location":"Asia\n  >  Cambodia\n  >  Phnom Penh","Phone Number":"093555954"},{"name":"Carl's Jr Cambodia","Address":"Phnom Penh, Cambodia","Location":"Asia\n  >  Cambodia\n  >  Phnom Penh","Phone Number":"012410404"},{"name":"Pepper Lunch","Address":"364 Preah Sothearos Blvd, Phnom Penh, Cambodia","Location":"Asia\n  >  Cambodia\n  >  Phnom Penh","Phone Number":"10800178"},{"name":"Nature Cafe","Address":"Russian Confederation Boulevard | Inside Royal University of Phnom Penh, CJCC's building, Phnom Penh 13253, Cambodia","Location":"Asia\n  >  Cambodia\n  >  Phnom Penh","Phone Number":"+855 23 884 534"},{"name":"Central BBQ","Address":"Sorya Mall Central, Phnom Penh 168, Cambodia","Location":"Asia\n  >  Cambodia\n  >  Phnom Penh","Phone Number":"081669936"},{"name":"Shnadai Khompot Restaurant","Address":"#68, St 111, Phnom Penh, Cambodia","Location":"Asia\n  >  Cambodia\n  >  Phnom Penh","Phone Number":"85517338303"},{"name":"Le Vita","Address":"Street 118, Phnom Penh, Cambodia","Location":"Asia\n  >  Cambodia\n  >  Phnom Penh","Phone Number":"077 700027"},{"name":"Cafe North","Address":"International School Street | Trapang Chhouk Village, Teuk Thla Commune, Sen Sok District, Phnom Penh 12000, Cambodia","Location":"Asia\n  >  Cambodia\n  >  Phnom Penh","Phone Number":"(855) 23 886 011"},{"name":"Mindy's Restaurant","Address":"36E, Street 184, Phnom Penh, Cambodia","Location":"Asia\n  >  Cambodia\n  >  Phnom Penh","Phone Number":"85596 290 929 5"},{"name":"Himajin Restaurant","Address":"200 No. 131, Oknha Men (St., Phnom Penh 12000, Cambodia","Location":"Asia\n  >  Cambodia\n  >  Phnom Penh","Phone Number":"023 214 641"},{"name":"Sa Em Restaurant","Address":"379 Sisowath Quay, Phnom Penh, Cambodia","Location":"Asia\n  >  Cambodia\n  >  Phnom Penh"}]